[
  {
    "name": "חניון אבולעפיה",
    "address": "קבוץ גלויות 32 תל-אביב יפו",
    "coords": null
  },
  {
    "name": "חניון אחימאיר",
    "address": "אחימאיר אבא 28 תל-אביב יפו",
    "coords": {
      "lat": "32.124197",
      "lon": "34.8041"
    }
  },
  {
    "name": "חניון אלוף",
    "address": "אלוף פינת בן חיל תל- אביב יפו",
    "coords": null
  },
  {
    "name": "חניון אסותא",
    "address": "ז`בוטינסקי 62 תל-אביב יפו",
    "coords": {
      "lat": "32.088467",
      "lon": "34.779364"
    }
  },
  {
    "name": "חניון ארלוזורוב - חנה וסע",
    "address": "יעקב דורי תל-אביב יפו",
    "coords": {
      "lat": "32.0853063",
      "lon": "34.7978463"
    }
  },
  {
    "name": "חניון ארלוזורוב 17",
    "address": "ארלוזורוב 17 תל-אביב יפו",
    "coords": {
      "lat": "32.087309",
      "lon": "34.773958"
    }
  },
  {
    "name": "חניון בזל",
    "address": "אשתורי הפרחי 5 תל-אביב יפו",
    "coords": {
      "lat": "32.089541",
      "lon": "34.779882"
    }
  },
  {
    "name": "חניון בית האצ",
    "address": "נחום גולדמן 2 תל-אביב יפו",
    "coords": {
      "lat": "32.057026",
      "lon": "34.75722"
    }
  },
  {
    "name": "חניון בית הדר",
    "address": "הרכבת 3 תל-אביב יפו",
    "coords": {
      "lat": "32.063978",
      "lon": "34.77783"
    }
  },
  {
    "name": "חניון בית החייל",
    "address": "עקיבה אריה תל-אביב יפו",
    "coords": null
  },
  {
    "name": "חניון בית צורי",
    "address": "בית צורי 20 תל-אביב יפו",
    "coords": {
      "lat": "32.122731",
      "lon": "34.80069"
    }
  },
  {
    "name": "חניון בן יוסף",
    "address": "בן יוסף 22 תל-אביב יפו",
    "coords": {
      "lat": "32.1257607",
      "lon": "34.7985570030653"
    }
  },
  {
    "name": "חניון בן יוסף 2",
    "address": "בן יוסף 17 תל-אביב יפו",
    "coords": {
      "lat": "32.125371",
      "lon": "34.797908"
    }
  },
  {
    "name": "חניון בני דן",
    "address": "אוסישקין 7 תל-אביב יפו",
    "coords": {
      "lat": "32.095801050000006",
      "lon": "34.777952808991756"
    }
  },
  {
    "name": "חניון ברוריה",
    "address": "יגאל אלון 151 תל-אביב יפו",
    "coords": {
      "lat": "32.077888",
      "lon": "34.796703"
    }
  },
  {
    "name": "חניון ברזאני",
    "address": "ברזאני משה 15 תל-אביב יפו",
    "coords": {
      "lat": "32.127993",
      "lon": "34.798203"
    }
  },
  {
    "name": "חניון גולדה",
    "address": "ברקוביץ 7 תל-אביב יפו",
    "coords": {
      "lat": "32.076985",
      "lon": "34.78467"
    }
  },
  {
    "name": "חניון גולדמן",
    "address": "גולדמן נחום 2ב תל-אביב יפו",
    "coords": {
      "lat": "32.0562579",
      "lon": "34.7569118"
    }
  },
  {
    "name": "חניון גולפיטק",
    "address": "רוקח 80 תל-אביב יפו",
    "coords": {
      "lat": "32.0986128",
      "lon": "34.7812165"
    }
  },
  {
    "name": "חניון גלי צה",
    "address": "יהודה הימית 21 תל-אביב יפו",
    "coords": {
      "lat": "32.049636",
      "lon": "34.757083"
    }
  },
  {
    "name": "חניון גן הכובשים 1 - מזרח",
    "address": "לוי יוסף גונדר 5 תל-אביב יפו",
    "coords": null
  },
  {
    "name": "חניון גן הכובשים 2 - מערב",
    "address": "יוסף לוי 3 תל אביב - יפו",
    "coords": {
      "lat": "32.066123",
      "lon": "34.763725"
    }
  },
  {
    "name": "חניון גני יהושע",
    "address": "רוקח 94 תל-אביב יפו",
    "coords": {
      "lat": "32.0986128",
      "lon": "34.7812165"
    }
  },
  {
    "name": "חניון דובנוב",
    "address": "דובנוב 4 תל-אביב יפו",
    "coords": {
      "lat": "32.07410205",
      "lon": "34.7839975941642"
    }
  },
  {
    "name": "חניון הארד",
    "address": "הארד 2 תל-אביב יפו",
    "coords": {
      "lat": "32.111255",
      "lon": "34.841524"
    }
  },
  {
    "name": "חניון הבעש",
    "address": "הבעש פינת יפת 171 תל-אביב יפו",
    "coords": null
  },
  {
    "name": "חניון החשמל",
    "address": "לבונטין 20 תל-אביב יפו",
    "coords": {
      "lat": "32.062209",
      "lon": "34.776254"
    }
  },
  {
    "name": "חניון הלוחמים",
    "address": "הלוחמים 15 תל-אביב יפו",
    "coords": {
      "lat": "32.036821",
      "lon": "34.764435"
    }
  },
  {
    "name": "חניון המוזיאונים",
    "address": "קלאוזנר 12 תל אביב - יפו",
    "coords": {
      "lat": "32.113760850000006",
      "lon": "34.80788012648128"
    }
  },
  {
    "name": "חניון המערכה",
    "address": "המערכה 10 תל-אביב יפו",
    "coords": {
      "lat": "32.061525",
      "lon": "34.793218"
    }
  },
  {
    "name": "חניון המשתלה",
    "address": "משה וילנסקי 55 תל-אביב יפו",
    "coords": {
      "lat": "32.127816",
      "lon": "34.833703"
    }
  },
  {
    "name": "חניון הנדסה",
    "address": "ג`ורג` וויז תל-אביב יפו (כניסה מבניין ברודקום)",
    "coords": null
  },
  {
    "name": "חניון הצפירה 1",
    "address": "הצפירה 2 תל-אביב יפו",
    "coords": {
      "lat": "32.061222",
      "lon": "34.781938"
    }
  },
  {
    "name": "חניון הצפירה 2",
    "address": "הצפירה 8 תל-אביב יפו",
    "coords": {
      "lat": "32.060558",
      "lon": "34.782629"
    }
  },
  {
    "name": "חניון הרב קוק",
    "address": "הרב קוק פינת הארי תל-אביב יפו",
    "coords": null
  },
  {
    "name": "חניון התחנה",
    "address": "המרד פינת קויפמן יחזקאל 65 תל-אביב יפו",
    "coords": null
  },
  {
    "name": "חניון התקומה",
    "address": "המרד 36 תל-אביב יפו",
    "coords": {
      "lat": "32.064985",
      "lon": "34.765015"
    }
  },
  {
    "name": "חניון התרבות",
    "address": "הוברמן 1 תל-אביב יפו",
    "coords": {
      "lat": "32.0727121",
      "lon": "34.7803567"
    }
  },
  {
    "name": "חניון וולפסון",
    "address": "השלום 120 תל-אביב יפו",
    "coords": {
      "lat": "32.059362",
      "lon": "34.807838"
    }
  },
  {
    "name": "חניון וולפסון 2",
    "address": "הטייסים 39 תל-אביב יפו",
    "coords": {
      "lat": "32.05682",
      "lon": "34.806949"
    }
  },
  {
    "name": "חניון חברה חדשה",
    "address": "חברה חדשה 9 תל-אביב יפו",
    "coords": {
      "lat": "32.085064",
      "lon": "34.790688"
    }
  },
  {
    "name": "חניון חוף תל ברוך",
    "address": "יצחק ארצי 34, תל-אביב יפו",
    "coords": {
      "lat": "32.123263",
      "lon": "34.785587"
    }
  },
  {
    "name": "חניון טאגור",
    "address": "סמטת טאגור 38 תל-אביב יפו",
    "coords": {
      "lat": "32.1174",
      "lon": "34.797785"
    }
  },
  {
    "name": "חניון טירת צבי",
    "address": "יגאל אלון תל-אביב יפו",
    "coords": {
      "lat": "32.0588017",
      "lon": "34.7920239"
    }
  },
  {
    "name": "חניון יד אבנר",
    "address": "קוממיות 24 תל-אביב יפו",
    "coords": {
      "lat": "32.119586",
      "lon": "34.805155"
    }
  },
  {
    "name": "חניון כיכר עליה",
    "address": "צלנוב 22 תל-אביב יפו",
    "coords": null
  },
  {
    "name": "חניון כיתן",
    "address": "קהילת סלוניקי 7 תל-אביב יפו",
    "coords": {
      "lat": "32.1141615",
      "lon": "34.8246237"
    }
  },
  {
    "name": "חניון כלכלה",
    "address": "ג`ורג` וייז 16 תל-אביב יפו",
    "coords": {
      "lat": "32.1102771",
      "lon": "34.807223"
    }
  },
  {
    "name": "חניון כרמל 1",
    "address": "קלישר פינת הכרמל תל-אביב יפו",
    "coords": null
  },
  {
    "name": "חניון כרמל 2",
    "address": "סמטת הכרמל 12 תל אביב",
    "coords": {
      "lat": "32.0678504",
      "lon": "34.7673528"
    }
  },
  {
    "name": "חניון לולאה",
    "address": "פרשת דרכים 10 תל אביב",
    "coords": {
      "lat": "32.0832016",
      "lon": "34.7962419"
    }
  },
  {
    "name": "חניון ליבר",
    "address": "פינס 41 תל-אביב יפו",
    "coords": {
      "lat": "32.060321",
      "lon": "34.767995"
    }
  },
  {
    "name": "חניון מבצע קדש",
    "address": "מבצע קדש פינת בני אפרים 220 תל-אביב יפו",
    "coords": null
  },
  {
    "name": "חניון מדעי החברה",
    "address": "ג`ורג` וייז פינת חיים לבנון תל-אביב יפו (מתחם אונ` 493)",
    "coords": null
  },
  {
    "name": "חניון מונטיפיורי",
    "address": "מונטיפיורי 5 תל-אביב יפו",
    "coords": {
      "lat": "32.0648989",
      "lon": "34.769436025143314"
    }
  },
  {
    "name": "חניון מטודלה",
    "address": "בנימין מטודלה 16 תל-אביב יפו",
    "coords": {
      "lat": "32.109811",
      "lon": "34.827309"
    }
  },
  {
    "name": "חניון מי ומי",
    "address": "משה סנה 54 תל-אביב יפו",
    "coords": {
      "lat": "32.1236154",
      "lon": "34.8242404"
    }
  },
  {
    "name": "חניון מירשם",
    "address": "קלצ`קין 25 תל-אביב יפו",
    "coords": {
      "lat": "32.11774375",
      "lon": "34.80699112221761"
    }
  },
  {
    "name": "חניון מכללה למינהל ומכללת לוינסקי 1",
    "address": "שושנה פרסיץ 9 תל-אביב יפו",
    "coords": {
      "lat": "32.1343792",
      "lon": "34.7966059"
    }
  },
  {
    "name": "חניון מכללה למינהל ומכללת לוינסקי 2",
    "address": "שושנה פרסיץ 9 תל-אביב יפו",
    "coords": {
      "lat": "32.1343792",
      "lon": "34.7966059"
    }
  },
  {
    "name": "חניון מכללה למינהל ומכללת לוינסקי 3",
    "address": "שושנה פרסיץ 9 תל-אביב יפו",
    "coords": {
      "lat": "32.1343792",
      "lon": "34.7966059"
    }
  },
  {
    "name": "חניון מכללת יפו",
    "address": "רבינו ירוחם 12 פינת חבר הלאומים 5 תל-אביב יפו",
    "coords": null
  },
  {
    "name": "חניון מפעל הפיס",
    "address": "ליאונרדו דוינצ'י 5 תל-אביב יפו",
    "coords": null
  },
  {
    "name": "חניון מרד",
    "address": "המרד 32 תל-אביב יפו",
    "coords": {
      "lat": "32.063886",
      "lon": "34.764105"
    }
  },
  {
    "name": "חניון מרכזים",
    "address": "הזרם 12 תל-אביב יפו",
    "coords": {
      "lat": "32.05095",
      "lon": "34.766552"
    }
  },
  {
    "name": "חניון נחושת",
    "address": "הנחושת 1 א` תל-אביב יפו",
    "coords": {
      "lat": "32.109337",
      "lon": "34.838442"
    }
  },
  {
    "name": "חניון סוציאלית (מעונות)",
    "address": "שבט בנימין 1 תל-אביב יפו",
    "coords": null
  },
  {
    "name": "חניון סינרמה",
    "address": "יצחק שדה 45 תל-אביב יפו",
    "coords": {
      "lat": "32.064643",
      "lon": "34.791972"
    }
  },
  {
    "name": "חניון סלודור",
    "address": "רמת אביב תל-אביב יפו",
    "coords": {
      "lat": "32.1088611",
      "lon": "34.7950946"
    }
  },
  {
    "name": "חניון סמולרש",
    "address": "ג`ורג` וייז 16 תל-אביב יפו",
    "coords": {
      "lat": "32.1102771",
      "lon": "34.807223"
    }
  },
  {
    "name": "חניון סעדיה גאון",
    "address": "ציקלג 7 תל-אביב יפו",
    "coords": null
  },
  {
    "name": "חניון ספיר",
    "address": "אליהו ספיר תל-אביב יפו",
    "coords": {
      "lat": "32.0748189",
      "lon": "34.7791075"
    }
  },
  {
    "name": "חניון עיר שמש",
    "address": "עיר שמש 40 תל-אביב יפו",
    "coords": {
      "lat": "32.124426",
      "lon": "34.827851"
    }
  },
  {
    "name": "חניון פליטי הספר",
    "address": "פליטי הספר פינת דם המכבים תל-אביב יפו",
    "coords": null
  },
  {
    "name": "חניון פלמ",
    "address": "יגאל אלון 68 תל-אביב יפו",
    "coords": {
      "lat": "32.063232",
      "lon": "34.792415"
    }
  },
  {
    "name": "חניון פנחס רוזן",
    "address": "פנחס רוזן 51 תל-אביב יפו",
    "coords": {
      "lat": "32.1072592",
      "lon": "34.8273286"
    }
  },
  {
    "name": "חניון צבי נישרי",
    "address": "צבי נשרי 2 תל-אביב יפו",
    "coords": {
      "lat": "32.0544706",
      "lon": "34.8018218"
    }
  },
  {
    "name": "חניון צמרות",
    "address": "רחוב אלכסנדר בוסקוביץ 1 תל-אביב יפו",
    "coords": null
  },
  {
    "name": "חניון קצה השדרה (רוטשילד 1)",
    "address": "שדרות רוטשילד 1 תל-אביב יפו",
    "coords": {
      "lat": "32.06312335",
      "lon": "34.76890265"
    }
  },
  {
    "name": "חניון רבניצקי",
    "address": "רבניצקי 6 תל-אביב יפו",
    "coords": {
      "lat": "32.0658916",
      "lon": "34.7898806"
    }
  },
  {
    "name": "חניון רידינג מזרח",
    "address": "רוקח 15 תל-אביב יפו",
    "coords": {
      "lat": "32.061677",
      "lon": "34.763033"
    }
  },
  {
    "name": "חניון רידינג מערב",
    "address": "רוקח 7 תל-אביב יפו",
    "coords": {
      "lat": "32.0605",
      "lon": "34.765636"
    }
  },
  {
    "name": "חניון רמז-ארלוזורוב",
    "address": "רמז 1 תל-אביב יפו",
    "coords": {
      "lat": "32.084866",
      "lon": "34.78554"
    }
  },
  {
    "name": "חניון רפואת שיניים",
    "address": "קלצ`קין 4 תל-אביב יפו",
    "coords": {
      "lat": "32.117079",
      "lon": "34.804092"
    }
  },
  {
    "name": "חניון רפידים",
    "address": "רפידים 7 תל-אביב יפו",
    "coords": {
      "lat": "32.1109234",
      "lon": "34.8122661"
    }
  },
  {
    "name": "חניון שלונסקי",
    "address": "שלונסקי 16 תל-אביב יפו",
    "coords": {
      "lat": "32.117125",
      "lon": "34.820611"
    }
  },
  {
    "name": "חניון שרתון",
    "address": "הנמל 1 תל-אביב יפו",
    "coords": null
  },
  {
    "name": "חניון תל ברוך - פתוח",
    "address": "בקר אהרון 18 תל-אביב יפו",
    "coords": {
      "lat": "32.1234313",
      "lon": "34.8157156"
    }
  },
  {
    "name": "חניון תל-נורדאו",
    "address": "פרישמן 28 תל-אביב יפו",
    "coords": {
      "lat": "32.079533",
      "lon": "34.771557"
    }
  }
]